[
  {"StationId": 1, "Name": "Ramses Station", "CityId": 1, "Latitude": 30.0626, "Longitude": 31.2468, "CompanyId": 0},
  {"StationId": 2, "Name": "Maadi Station", "CityId": 1, "Latitude": 29.9600, "Longitude": 31.2464, "CompanyId": 0},
  {"StationId": 3, "Name": "Abbassia Station", "CityId": 1, "Latitude": 30.0715, "Longitude": 31.2818, "CompanyId": 0},
  {"StationId": 4, "Name": "Misr Station", "CityId": 1, "Latitude": 30.0626, "Longitude": 31.2468, "CompanyId": 0},
  {"StationId": 5, "Name": "Shubra Station", "CityId": 1, "Latitude": 30.0720, "Longitude": 31.2420, "CompanyId": 0},
  {"StationId": 6, "Name": "Heliopolis Station", "CityId": 1, "Latitude": 30.0841, "Longitude": 31.3308, "CompanyId": 0},
  {"StationId": 7, "Name": "Nasr City Terminal", "CityId": 1, "Latitude": 30.0550, "Longitude": 31.3550, "CompanyId": 0},
  {"StationId": 8, "Name": "Zamalek Stop", "CityId": 1, "Latitude": 30.0660, "Longitude": 31.2160, "CompanyId": 0},
  {"StationId": 9, "Name": "Downtown Cairo Station", "CityId": 1, "Latitude": 30.0440, "Longitude": 31.2350, "CompanyId": 0},
  {"StationId": 10, "Name": "Smouha Terminal", "CityId": 2, "Latitude": 31.2089, "Longitude": 29.9668, "CompanyId": 0},
  {"StationId": 11, "Name": "Moharam Bek Station", "CityId": 2, "Latitude": 31.1850, "Longitude": 29.9070, "CompanyId": 0},
  {"StationId": 12, "Name": "Sidi Gaber Station", "CityId": 2, "Latitude": 31.2190, "Longitude": 29.9420, "CompanyId": 0},
  {"StationId": 13, "Name": "Montaza Station", "CityId": 2, "Latitude": 31.2820, "Longitude": 30.0150, "CompanyId": 0},
  {"StationId": 14, "Name": "Stanley Bridge Stop", "CityId": 2, "Latitude": 31.2400, "Longitude": 29.9600, "CompanyId": 0},
  {"StationId": 15, "Name": "Miami Station", "CityId": 2, "Latitude": 31.2700, "Longitude": 30.0000, "CompanyId": 0},
  {"StationId": 16, "Name": "Raml Station", "CityId": 2, "Latitude": 31.2000, "Longitude": 29.9000, "CompanyId": 0},
  {"StationId": 17, "Name": "Giza Central Station", "CityId": 3, "Latitude": 30.0131, "Longitude": 31.2089, "CompanyId": 0},
  {"StationId": 18, "Name": "6th October Station", "CityId": 3, "Latitude": 29.9710, "Longitude": 30.9468, "CompanyId": 0},
  {"StationId": 19, "Name": "Haram Station", "CityId": 3, "Latitude": 29.9820, "Longitude": 31.1420, "CompanyId": 0},
  {"StationId": 20, "Name": "Faisal Station", "CityId": 3, "Latitude": 30.0300, "Longitude": 31.2000, "CompanyId": 0},
  {"StationId": 21, "Name": "Pyramids View Station", "CityId": 3, "Latitude": 29.9750, "Longitude": 31.1370, "CompanyId": 0},
  {"StationId": 22, "Name": "Dokki Central", "CityId": 3, "Latitude": 30.0400, "Longitude": 31.2020, "CompanyId": 0},
  {"StationId": 23, "Name": "Sheikh Zayed Stop", "CityId": 3, "Latitude": 30.0400, "Longitude": 30.9700, "CompanyId": 0},
  {"StationId": 24, "Name": "Mohandessin Station", "CityId": 3, "Latitude": 30.0530, "Longitude": 31.2000, "CompanyId": 0},
  {"StationId": 25, "Name": "Luxor East Station", "CityId": 4, "Latitude": 25.6872, "Longitude": 32.6396, "CompanyId": 0},
  {"StationId": 26, "Name": "Karnak Terminal", "CityId": 4, "Latitude": 25.7188, "Longitude": 32.6573, "CompanyId": 0},
  {"StationId": 27, "Name": "Karnak Station", "CityId": 4, "Latitude": 25.7188, "Longitude": 32.6573, "CompanyId": 0},
  {"StationId": 28, "Name": "Luxor International Station", "CityId": 4, "Latitude": 25.6990, "Longitude": 32.6420, "CompanyId": 0},
  {"StationId": 29, "Name": "Valley of the Kings Stop", "CityId": 4, "Latitude": 25.7400, "Longitude": 32.6010, "CompanyId": 0},
  {"StationId": 30, "Name": "Luxor Temple Station", "CityId": 4, "Latitude": 25.6990, "Longitude": 32.6390, "CompanyId": 0},
  {"StationId": 31, "Name": "West Bank Station", "CityId": 4, "Latitude": 25.7000, "Longitude": 32.6100, "CompanyId": 0},
  {"StationId": 32, "Name": "Aswan Downtown Station", "CityId": 5, "Latitude": 24.0889, "Longitude": 32.8998, "CompanyId": 0},
  {"StationId": 33, "Name": "Philae Temple Stop", "CityId": 5, "Latitude": 24.0250, "Longitude": 32.8840, "CompanyId": 0},
  {"StationId": 34, "Name": "Aswan High Dam Station", "CityId": 5, "Latitude": 23.9700, "Longitude": 32.8770, "CompanyId": 0},
  {"StationId": 35, "Name": "Nubian Village Stop", "CityId": 5, "Latitude": 24.0800, "Longitude": 32.8900, "CompanyId": 0},
  {"StationId": 36, "Name": "Elephantine Island Station", "CityId": 5, "Latitude": 24.0900, "Longitude": 32.8870, "CompanyId": 0},
  {"StationId": 37, "Name": "Mansoura University Station", "CityId": 6, "Latitude": 31.0400, "Longitude": 31.3530, "CompanyId": 0},
  {"StationId": 38, "Name": "Talkha Bridge Stop", "CityId": 6, "Latitude": 31.0600, "Longitude": 31.3750, "CompanyId": 0},
  {"StationId": 39, "Name": "El Gomhoria Station", "CityId": 6, "Latitude": 31.0360, "Longitude": 31.3600, "CompanyId": 0},
  {"StationId": 40, "Name": "Zagazig Central", "CityId": 7, "Latitude": 30.5870, "Longitude": 31.5020, "CompanyId": 0},
  {"StationId": 41, "Name": "Banha Road Station", "CityId": 7, "Latitude": 30.4650, "Longitude": 31.1840, "CompanyId": 0},
  {"StationId": 42, "Name": "Hehia Stop", "CityId": 7, "Latitude": 30.6700, "Longitude": 31.6000, "CompanyId": 0},
  {"StationId": 43, "Name": "Tanta Railway Station", "CityId": 8, "Latitude": 30.7860, "Longitude": 31.0010, "CompanyId": 0},
  {"StationId": 44, "Name": "Mahalet Rouh Stop", "CityId": 8, "Latitude": 30.9700, "Longitude": 30.9600, "CompanyId": 0},
  {"StationId": 45, "Name": "Seberbay Station", "CityId": 8, "Latitude": 30.8000, "Longitude": 31.0100, "CompanyId": 0},
  {"StationId": 46, "Name": "Port Said Main Station", "CityId": 9, "Latitude": 31.2653, "Longitude": 32.3019, "CompanyId": 0},
  {"StationId": 47, "Name": "Port Said Downtown Station", "CityId": 9, "Latitude": 31.2565, "Longitude": 32.2846, "CompanyId": 0},
  {"StationId": 48, "Name": "Port Fouad Station", "CityId": 9, "Latitude": 31.2460, "Longitude": 32.3140, "CompanyId": 0},
  {"StationId": 49, "Name": "El Manakh Stop", "CityId": 9, "Latitude": 31.2650, "Longitude": 32.3010, "CompanyId": 0},
  {"StationId": 50, "Name": "El Sharq Station", "CityId": 9, "Latitude": 31.2700, "Longitude": 32.2900, "CompanyId": 0},
  {"StationId": 51, "Name": "Suez Central Station", "CityId": 10, "Latitude": 29.9668, "Longitude": 32.5498, "CompanyId": 0},
  {"StationId": 52, "Name": "Port Tawfiq Station", "CityId": 10, "Latitude": 29.9479, "Longitude": 32.5696, "CompanyId": 0},
  {"StationId": 53, "Name": "Suez Canal Station", "CityId": 10, "Latitude": 29.9660, "Longitude": 32.5490, "CompanyId": 0},
  {"StationId": 54, "Name": "El Shalalat Stop", "CityId": 10, "Latitude": 29.9730, "Longitude": 32.5420, "CompanyId": 0},
  {"StationId": 55, "Name": "Adabiya Port Stop", "CityId": 10, "Latitude": 29.8800, "Longitude": 32.4800, "CompanyId": 0},
  {"StationId": 56, "Name": "Ismailia Main Station", "CityId": 11, "Latitude": 30.5965, "Longitude": 32.2715, "CompanyId": 0},
  {"StationId": 57, "Name": "Canal View Station", "CityId": 11, "Latitude": 30.6165, "Longitude": 32.3130, "CompanyId": 0},
  {"StationId": 58, "Name": "Ismailia Governorate Station", "CityId": 11, "Latitude": 30.5960, "Longitude": 32.2710, "CompanyId": 0},
  {"StationId": 59, "Name": "El Tal El Kebir Stop", "CityId": 11, "Latitude": 30.5440, "Longitude": 31.7820, "CompanyId": 0},
  {"StationId": 60, "Name": "Fayed Station", "CityId": 11, "Latitude": 30.3200, "Longitude": 32.3000, "CompanyId": 0},
  {"StationId": 61, "Name": "Damietta Central Station", "CityId": 12, "Latitude": 31.4165, "Longitude": 31.8133, "CompanyId": 0},
  {"StationId": 62, "Name": "Damietta Port Station", "CityId": 12, "Latitude": 31.4665, "Longitude": 31.7665, "CompanyId": 0},
  {"StationId": 63, "Name": "Damietta Port Authority", "CityId": 12, "Latitude": 31.4660, "Longitude": 31.7660, "CompanyId": 0},
  {"StationId": 64, "Name": "Ras El Bar Station", "CityId": 12, "Latitude": 31.5110, "Longitude": 31.8310, "CompanyId": 0},
  {"StationId": 65, "Name": "Ezbet El Borg Stop", "CityId": 12, "Latitude": 31.5000, "Longitude": 31.8400, "CompanyId": 0},
  {"StationId": 66, "Name": "Mahalla Main Station", "CityId": 13, "Latitude": 30.9700, "Longitude": 31.1669, "CompanyId": 0},
  {"StationId": 67, "Name": "Mahalla East Station", "CityId": 13, "Latitude": 30.9700, "Longitude": 31.1800, "CompanyId": 0},
  {"StationId": 68, "Name": "Mahalla Textile Station", "CityId": 13, "Latitude": 30.9700, "Longitude": 31.1660, "CompanyId": 0},
  {"StationId": 69, "Name": "Samannoud Stop", "CityId": 13, "Latitude": 30.9610, "Longitude": 31.2410, "CompanyId": 0},
  {"StationId": 70, "Name": "El Santa Station", "CityId": 13, "Latitude": 30.9500, "Longitude": 31.1500, "CompanyId": 0},
  {"StationId": 71, "Name": "Kafr El Sheikh Station", "CityId": 14, "Latitude": 31.1100, "Longitude": 30.9300, "CompanyId": 0},
  {"StationId": 72, "Name": "Kafr El Sheikh Central", "CityId": 14, "Latitude": 31.1100, "Longitude": 30.9300, "CompanyId": 0},
  {"StationId": 73, "Name": "Desouk Station", "CityId": 14, "Latitude": 31.1290, "Longitude": 30.6470, "CompanyId": 0},
  {"StationId": 74, "Name": "Baltim Stop", "CityId": 14, "Latitude": 31.5500, "Longitude": 31.0900, "CompanyId": 0},
  {"StationId": 75, "Name": "Fayoum Central Station", "CityId": 15, "Latitude": 29.3084, "Longitude": 30.8441, "CompanyId": 0},
  {"StationId": 76, "Name": "Lake Qarun Station", "CityId": 15, "Latitude": 29.4710, "Longitude": 30.6650, "CompanyId": 0},
  {"StationId": 77, "Name": "Ibshaway Stop", "CityId": 15, "Latitude": 29.3550, "Longitude": 30.6810, "CompanyId": 0},
  {"StationId": 78, "Name": "Sinnuris Station", "CityId": 15, "Latitude": 29.4000, "Longitude": 30.8700, "CompanyId": 0},
  {"StationId": 79, "Name": "Minya Main Station", "CityId": 16, "Latitude": 28.1099, "Longitude": 30.7503, "CompanyId": 0},
  {"StationId": 80, "Name": "Minya University Station", "CityId": 16, "Latitude": 28.1090, "Longitude": 30.7500, "CompanyId": 0},
  {"StationId": 81, "Name": "Mallawi Stop", "CityId": 16, "Latitude": 27.7310, "Longitude": 30.8410, "CompanyId": 0},
  {"StationId": 82, "Name": "Samalut Station", "CityId": 16, "Latitude": 28.3100, "Longitude": 30.7100, "CompanyId": 0},
  {"StationId": 83, "Name": "Beni Suef Central Station", "CityId": 17, "Latitude": 29.0661, "Longitude": 31.0977, "CompanyId": 0},
  {"StationId": 84, "Name": "Beni Suef Central", "CityId": 17, "Latitude": 29.0660, "Longitude": 31.0970, "CompanyId": 0},
  {"StationId": 85, "Name": "El Wasta Station", "CityId": 17, "Latitude": 29.3390, "Longitude": 31.2050, "CompanyId": 0},
  {"StationId": 86, "Name": "Nasser Stop", "CityId": 17, "Latitude": 29.0500, "Longitude": 31.0900, "CompanyId": 0},
  {"StationId": 87, "Name": "Hurghada Bus Station", "CityId": 18, "Latitude": 27.2579, "Longitude": 33.8116, "CompanyId": 0},
  {"StationId": 88, "Name": "Rogina Terminal", "CityId": 18, "Latitude": 27.2579, "Longitude": 33.8116, "CompanyId": 0},
  {"StationId": 89, "Name": "El Sakalla Station", "CityId": 18, "Latitude": 27.2579, "Longitude": 33.8116, "CompanyId": 0},
  {"StationId": 90, "Name": "Sahl Hasheesh Station", "CityId": 18, "Latitude": 27.0570, "Longitude": 33.8850, "CompanyId": 0},
  {"StationId": 91, "Name": "El Dahar Stop", "CityId": 18, "Latitude": 27.2570, "Longitude": 33.8110, "CompanyId": 0},
  {"StationId": 92, "Name": "Makadi Bay Station", "CityId": 18, "Latitude": 26.9900, "Longitude": 33.9000, "CompanyId": 0},
  {"StationId": 93, "Name": "Watania Station", "CityId": 19, "Latitude": 27.9150, "Longitude": 34.3297, "CompanyId": 0},
  {"StationId": 94, "Name": "Royssat Station", "CityId": 19, "Latitude": 27.9150, "Longitude": 34.3297, "CompanyId": 0},
  {"StationId": 95, "Name": "Naama Bay Station", "CityId": 19, "Latitude": 27.9150, "Longitude": 34.3290, "CompanyId": 0},
  {"StationId": 96, "Name": "Sharks Bay Stop", "CityId": 19, "Latitude": 27.9570, "Longitude": 34.3850, "CompanyId": 0},
  {"StationId": 97, "Name": "Ras Nasrani Station", "CityId": 19, "Latitude": 27.9800, "Longitude": 34.4000, "CompanyId": 0},
  {"StationId": 98, "Name": "Dahab Bus Station", "CityId": 20, "Latitude": 28.5097, "Longitude": 34.5133, "CompanyId": 0},
  {"StationId": 99, "Name": "El Masbat Street", "CityId": 20, "Latitude": 28.5097, "Longitude": 34.5133, "CompanyId": 0},
  {"StationId": 100, "Name": "Lagoon Area Station", "CityId": 20, "Latitude": 28.5090, "Longitude": 34.5130, "CompanyId": 0},
  {"StationId": 101, "Name": "Mashraba Stop", "CityId": 20, "Latitude": 28.4930, "Longitude": 34.5150, "CompanyId": 0},
  {"StationId": 102, "Name": "Blue Hole Stop", "CityId": 20, "Latitude": 28.5700, "Longitude": 34.5400, "CompanyId": 0},
  {"StationId": 103, "Name": "Taba Crossing Station", "CityId": 21, "Latitude": 29.4925, "Longitude": 34.8974, "CompanyId": 0},
  {"StationId": 104, "Name": "Taba Heights Station", "CityId": 21, "Latitude": 29.3930, "Longitude": 34.8010, "CompanyId": 0},
  {"StationId": 105, "Name": "Taba Border Stop", "CityId": 21, "Latitude": 29.4920, "Longitude": 34.8970, "CompanyId": 0},
  {"StationId": 106, "Name": "Taba Airport Station", "CityId": 21, "Latitude": 29.5900, "Longitude": 34.7800, "CompanyId": 0},
  {"StationId": 107, "Name": "Safaga Port Station", "CityId": 22, "Latitude": 26.7292, "Longitude": 33.9365, "CompanyId": 0},
  {"StationId": 108, "Name": "Safaga Port Authority", "CityId": 22, "Latitude": 26.7290, "Longitude": 33.9360, "CompanyId": 0},
  {"StationId": 109, "Name": "El Quseir Stop", "CityId": 22, "Latitude": 26.1040, "Longitude": 34.2780, "CompanyId": 0},
  {"StationId": 110, "Name": "Soma Bay Station", "CityId": 22, "Latitude": 26.8500, "Longitude": 34.0000, "CompanyId": 0},
  {"StationId": 111, "Name": "El Gouna Station", "CityId": 23, "Latitude": 27.3942, "Longitude": 33.6783, "CompanyId": 0},
  {"StationId": 112, "Name": "Downtown El Gouna", "CityId": 23, "Latitude": 27.3940, "Longitude": 33.6780, "CompanyId": 0},
  {"StationId": 113, "Name": "Abu Tig Marina Stop", "CityId": 23, "Latitude": 27.3810, "Longitude": 33.6710, "CompanyId": 0},
  {"StationId": 114, "Name": "El Kafr Station", "CityId": 23, "Latitude": 27.4000, "Longitude": 33.6900, "CompanyId": 0},
  {"StationId": 115, "Name": "Company1 Station", "CityId": 1, "Latitude": 30.0500, "Longitude": 31.2400, "CompanyId": 1}
]